City,Country,Lat,Lng,Max Temp (F),Humidity (%),Cloudiness (%),Wind Speed(mph),Date
hami,CN,42.8,93.45,45.91,46,0,2.73,1603489829
albany,US,42.6,-73.97,70.0,72,83,1.99,1603489831
mataura,NZ,-46.19,168.86,64.99,61,60,8.01,1603489833
faanui,PF,-16.48,-151.75,78.85,74,13,8.55,1603489479
augustow,PL,53.84,22.98,48.97,95,66,4.18,1603490000
busselton,AU,-33.65,115.33,53.01,47,0,11.01,1603489596
bambey,SN,14.7,-16.45,86.0,74,6,2.24,1603490000
bethel,US,41.37,-73.41,62.01,96,91,4.76,1603489830
mwanza,TZ,-2.52,32.9,74.95,69,25,7.58,1603490001
san policarpo,PH,12.18,125.51,77.5,88,93,6.85,1603489672
trairi,BR,-3.28,-39.27,79.39,79,0,10.13,1603489853
acapulco,MX,16.86,-99.89,87.8,70,75,8.05,1603489850
saint george,US,37.1,-113.58,72.0,16,1,5.12,1603489502
manzanillo,CU,20.34,-77.12,77.34,83,97,7.05,1603490002
ushuaia,AR,-54.8,-68.3,44.6,65,75,9.17,1603489352
provideniya,RU,64.38,-173.3,34.21,89,100,13.24,1603489643
choix,MX,26.71,-108.32,96.24,22,0,4.9,1603490002
ostrovnoy,RU,68.05,39.51,29.32,97,100,6.98,1603489641
yellowknife,CA,62.46,-114.35,28.0,58,20,13.87,1603489832
kodiak,US,57.79,-152.41,46.4,87,90,24.16,1603489834
mahebourg,MU,-20.41,57.7,73.4,69,20,9.17,1603489612
hofn,IS,64.25,-15.21,43.86,83,100,10.87,1603490003
mar del plata,AR,-38.0,-57.56,60.8,87,40,8.05,1603489480
corinto,GR,37.94,22.96,64.0,59,0,4.61,1603490003
rikitea,PF,-23.12,-134.97,74.68,77,60,7.9,1603489830
sur,OM,22.57,59.53,74.95,67,0,9.42,1603490003
forestville,US,38.85,-76.88,75.2,68,1,8.05,1603490004
naantali,FI,60.47,22.02,32.0,71,40,3.36,1603490004
jamestown,US,42.1,-79.24,75.99,47,40,14.99,1603489369
vostok,RU,46.49,135.88,23.45,99,100,11.03,1603490004
komsomolskiy,UZ,40.43,71.72,44.6,70,91,4.7,1603489831
puerto ayora,EC,-0.74,-90.35,78.8,69,20,14.99,1603489648
the pas,CA,53.83,-101.25,26.6,68,90,12.75,1603490005
kapaa,US,22.08,-159.32,78.01,88,75,11.41,1603489644
cherskiy,RU,68.75,161.3,16.03,94,35,3.31,1603489641
dikson,RU,73.51,80.55,23.63,93,100,14.85,1603489647
rock sound,BS,24.9,-76.2,80.37,70,1,15.82,1603490006
zemio,CF,5.03,25.14,70.12,94,100,0.65,1603490006
hutchinson,US,38.06,-97.93,48.2,42,1,19.46,1603490006
vaini,TO,-21.2,-175.2,77.0,38,40,11.41,1603489641
naze,JP,28.37,129.48,71.6,56,20,9.17,1603489864
bluff,NZ,-46.6,168.33,64.99,61,95,8.01,1603489829
arraial do cabo,BR,-22.97,-42.03,73.4,73,0,19.46,1603489504
xuanwu,CN,32.07,118.81,53.01,76,0,2.59,1603490007
qaanaaq,GL,77.48,-69.36,19.35,92,98,7.94,1603489828
sao filipe,CV,14.9,-24.5,80.42,77,20,13.22,1603489659
ayan,RU,56.45,138.17,34.48,89,100,15.99,1603490018
amapa,BR,1.0,-52.0,89.28,34,72,6.46,1603490018
tilichiki,RU,60.47,166.1,31.33,95,0,4.92,1603490018
barrow,US,71.29,-156.79,28.4,92,90,9.17,1603489640
lompoc,US,34.64,-120.46,73.4,56,75,10.29,1603489761
saldanha,ZA,-33.01,17.94,59.0,82,9,4.7,1603489654
cape town,ZA,-33.93,18.42,61.0,87,0,8.05,1603489393
norman wells,CA,65.28,-126.83,30.2,86,75,8.05,1603489652
sitka,US,57.05,-135.33,42.8,26,75,6.8,1603489670
nicoya,CR,10.15,-85.45,82.4,83,75,12.75,1603490020
punta arenas,CL,-53.15,-70.92,46.4,65,75,6.93,1603489542
coahuayana,MX,18.73,-103.68,86.0,66,40,5.37,1603489752
port keats,AU,-14.25,129.55,83.64,73,31,7.65,1603490020
bambous virieux,MU,-20.34,57.76,73.4,69,20,9.17,1603489659
skibbereen,IE,51.55,-9.27,51.8,81,75,21.92,1603490021
puerto escondido,MX,15.85,-97.07,87.8,66,40,10.29,1603489988
dunedin,NZ,-45.87,170.5,62.26,50,58,3.42,1603489494
lidkoping,SE,58.51,13.16,44.6,100,92,4.7,1603490021
muisne,EC,0.6,-80.03,75.54,84,99,11.92,1603490022
geraldton,AU,-28.77,114.6,51.8,76,0,6.93,1603489648
igrim,RU,63.19,64.42,21.4,96,25,4.18,1603489832
carnarvon,AU,-24.87,113.63,68.0,77,0,12.75,1603489359
lagos,NG,6.58,3.75,77.52,90,96,4.61,1603490022
dukat,RU,62.55,155.55,26.11,92,46,5.28,1603490022
east london,ZA,-33.02,27.91,72.82,75,55,4.63,1603489366
nikolskoye,RU,59.7,30.79,41.0,75,75,13.42,1603489644
khatanga,RU,71.97,102.5,10.85,96,100,9.86,1603489437
klaksvik,FO,62.23,-6.59,42.8,93,3,4.7,1603489663
husavik,IS,66.04,-17.34,42.8,75,75,6.93,1603489647
ranong,TH,9.97,98.63,76.39,83,93,3.38,1603490024
port hardy,CA,50.7,-127.42,44.6,87,75,6.93,1603489657
hilo,US,19.73,-155.09,87.8,55,20,11.41,1603489563
avera,US,33.19,-82.53,80.6,61,75,6.93,1603489831
scottsbluff,US,41.87,-103.67,33.01,67,90,8.05,1603490024
hobyo,SO,5.35,48.53,82.22,75,100,22.21,1603490024
mendoza,AR,-32.89,-68.83,84.2,35,0,4.7,1603490024
bereznik,RU,62.86,42.71,34.61,98,100,3.62,1603490025
barinitas,VE,8.76,-70.41,75.74,86,98,1.36,1603490025
chokurdakh,RU,70.63,147.92,8.46,91,94,7.31,1603489651
san andres,CO,12.58,-81.7,87.8,66,20,4.7,1603490025
nanortalik,GL,60.14,-45.24,34.21,87,98,5.77,1603489835
port elizabeth,ZA,-33.92,25.57,68.0,88,45,16.11,1603489834
bredasdorp,ZA,-34.53,20.04,64.4,93,29,1.36,1603489644
tasiilaq,GL,65.61,-37.64,33.8,59,100,3.36,1603489643
hobart,AU,-42.88,147.33,55.0,71,75,6.93,1603489643
kaeo,NZ,-35.1,173.78,69.01,81,81,1.99,1603490036
longyearbyen,SJ,78.22,15.64,19.4,79,75,1.12,1603489501
atuona,PF,-9.8,-139.03,78.21,77,25,19.26,1603489645
mnogovershinnyy,RU,53.94,139.92,41.18,100,100,22.95,1603490037
merauke,ID,-8.47,140.33,80.22,79,38,11.21,1603489378
ortona,IT,42.35,14.4,60.01,87,100,3.36,1603490037
santa barbara,US,34.73,-120.03,73.0,53,1,4.7,1603490037
mount gambier,AU,-37.83,140.77,51.8,76,90,14.99,1603489436
snezhnogorsk,RU,69.19,33.25,30.2,100,75,15.82,1603490037
alice springs,AU,-23.7,133.88,62.6,63,0,5.82,1603489391
chicama,PE,-7.84,-79.15,68.0,66,78,7.14,1603489653
upernavik,GL,72.79,-56.15,22.28,92,99,8.03,1603489646
sirohi,IN,24.88,72.87,70.36,37,0,2.01,1603490038
kalka,IN,30.83,76.93,64.31,36,0,5.06,1603490038
paamiut,GL,61.99,-49.67,32.5,88,50,24.74,1603489658
uyuni,BO,-20.46,-66.83,63.14,26,0,18.1,1603490039
tuktoyaktuk,CA,69.45,-133.04,24.8,92,90,9.17,1603489403
castries,LC,14.0,-61.01,86.0,70,20,11.41,1603490039
cabo san lucas,MX,22.89,-109.91,91.4,62,5,11.41,1603489526
buluang,PH,13.31,123.34,77.61,89,100,4.56,1603490039
salalah,OM,17.02,54.09,75.2,44,0,2.24,1603489665
souillac,MU,-20.52,57.52,73.4,69,20,9.17,1603489429
okhotsk,RU,59.38,143.3,37.87,92,100,12.33,1603489635
nemuro,JP,43.32,145.57,53.53,71,0,19.39,1603489671
lagoa,PT,39.05,-27.98,66.7,81,25,24.85,1603489651
berdigestyakh,RU,62.1,126.7,22.68,97,100,5.95,1603490040
santos dumont,BR,-21.46,-43.55,62.37,85,64,3.47,1603490041
kimbe,PG,-5.55,150.14,82.58,74,65,1.34,1603490041
flin flon,CA,54.77,-101.86,26.6,49,75,9.17,1603490041
tezu,IN,27.92,96.17,69.4,86,100,3.49,1603490041
port alfred,ZA,-33.59,26.89,68.45,80,64,18.37,1603489641
hermanus,ZA,-34.42,19.23,64.99,90,32,1.01,1603489442
karuzi,BI,-3.12,30.13,62.8,73,1,1.79,1603490042
ivanava,BY,52.15,25.54,52.54,86,100,4.97,1603490042
surt,LY,31.21,16.59,68.45,62,0,4.85,1603490042
san jeronimo,PE,-11.95,-75.28,60.93,48,60,7.94,1603490042
kieta,PG,-6.22,155.63,83.79,68,37,1.97,1603490042
torit,SS,4.41,32.57,71.65,90,32,1.41,1603490043
san jose,US,37.34,-121.89,75.0,43,20,4.7,1603489777
port hawkesbury,CA,45.62,-61.35,46.4,75,1,4.7,1603490043
moorhead,US,46.87,-96.77,30.2,63,75,14.99,1603490043
bud,US,39.45,-86.18,66.2,88,96,3.36,1603490043
saskylakh,RU,71.92,114.08,18.99,97,100,3.22,1603489651
okitipupa,NG,6.5,4.78,75.0,96,55,3.13,1603490054
mitu,CO,1.2,-70.17,76.77,94,97,1.48,1603489401
krasnoselkup,RU,65.7,82.47,16.48,97,85,8.93,1603490054
tlacotepec,MX,20.07,-97.87,75.56,51,1,5.64,1603490054
krasnovishersk,RU,60.41,57.08,22.44,91,100,8.1,1603490055
bethanien,NA,-26.5,17.16,70.9,31,28,4.63,1603490055
yarada,IN,17.65,83.27,82.4,94,40,2.24,1603489655
palmer,US,42.16,-72.33,68.0,72,75,5.82,1603489968
constitucion,CL,-35.33,-72.42,56.28,66,0,14.03,1603489643
richards bay,ZA,-28.78,32.04,67.46,89,7,7.2,1603489666
kaitangata,NZ,-46.28,169.85,61.95,54,48,3.87,1603489507
severo-kurilsk,RU,50.68,156.12,44.47,81,100,32.59,1603489479
avarua,CK,-21.21,-159.78,77.0,73,75,13.87,1603489836
bambanglipuro,ID,-7.95,110.28,76.98,87,29,4.72,1603490056
lisakovsk,KZ,52.54,62.49,27.41,91,5,8.1,1603490056
thompson,CA,55.74,-97.86,24.8,58,90,13.87,1603489642
muros,ES,42.78,-9.06,59.0,88,85,10.0,1603490057
agadir,MA,30.42,-9.6,64.4,77,0,11.41,1603489662
half moon bay,US,37.46,-122.43,71.6,72,1,3.36,1603489667
lahat,ID,-3.8,103.53,72.7,92,100,2.24,1603490058
fairbanks,US,64.84,-147.72,25.0,84,1,4.54,1603489611
okha,RU,53.57,142.95,46.06,91,100,38.5,1603490058
smithers,CA,54.78,-127.17,26.6,58,75,5.82,1603490058
bonnyville,CA,54.27,-110.73,21.2,53,90,4.7,1603490058
pevek,RU,69.7,170.31,26.76,94,78,10.49,1603489662
malpe,IN,13.35,74.72,73.4,83,75,6.93,1603490059
nome,US,64.5,-165.41,33.8,86,90,16.11,1603489673
pemangkat,ID,1.17,108.97,78.35,81,100,3.94,1603489369
linares,CL,-35.85,-71.6,70.47,48,0,8.14,1603490059
russellville,US,35.28,-93.13,61.0,67,90,10.29,1603490059
lata,PT,40.16,-8.33,57.99,86,6,1.61,1603489654
libourne,FR,44.92,-0.25,55.99,100,0,6.93,1603490060
victoria,HK,22.29,114.16,73.99,46,100,16.67,1603489651
wick,GB,58.43,-3.08,42.8,81,1,6.93,1603490060
torbay,CA,47.67,-52.73,39.99,86,40,2.24,1603489647
mackay,AU,-21.15,149.2,77.0,78,75,9.17,1603490061
pitkyaranta,RU,61.57,31.48,36.14,83,100,15.5,1603490061
tongzi,CN,28.78,105.09,60.87,82,34,2.55,1603490061
bilibino,RU,68.05,166.44,16.41,89,74,0.36,1603489671
zapolyarnyy,RU,69.42,30.81,30.2,100,90,6.93,1603490061
praya,CV,14.92,-23.51,78.8,78,40,16.11,1603490062
golkoy,TR,40.69,37.62,59.0,100,20,4.97,1603490062
usinsk,RU,65.99,57.53,18.27,95,37,10.78,1603490062
samarinda,ID,-0.5,117.15,73.63,98,82,2.39,1603490063
tiksi,RU,71.69,128.87,22.78,96,100,15.32,1603489653
new norfolk,AU,-42.78,147.06,55.0,64,100,3.0,1603489646
umm lajj,SA,25.02,37.27,82.42,38,0,7.63,1603490073
cidreira,BR,-30.18,-50.21,68.16,90,100,15.14,1603489643
zvishavane,ZW,-20.33,30.07,68.81,57,0,2.8,1603490073
sola,VU,-13.88,167.55,77.0,94,90,17.83,1603489660
ulaangom,MN,49.98,92.07,32.52,91,100,3.2,1603490074
esperance,AU,-33.87,121.9,53.6,100,90,3.36,1603489650
butaritari,KI,3.07,172.79,82.26,73,100,13.2,1603489834
bontang,ID,0.13,117.5,77.54,86,100,6.46,1603490074
albion,US,42.24,-84.75,55.0,81,90,13.87,1603489456
bereda,ES,43.27,-7.54,60.01,82,20,11.41,1603490075
eureka,US,40.8,-124.16,66.0,64,0,4.0,1603490075
sao joao da barra,BR,-21.64,-41.05,75.2,64,0,11.41,1603489647
abu kamal,SY,34.45,40.92,68.16,28,97,5.82,1603490075
grand island,US,40.92,-98.34,35.6,55,90,20.8,1603489788
tura,IN,25.52,90.22,70.02,99,100,4.47,1603489667
lasa,IT,46.62,10.7,52.0,100,75,3.36,1603490076
vila franca do campo,PT,37.72,-25.43,66.2,72,75,13.87,1603489644
omsukchan,RU,62.53,155.8,25.21,90,18,3.51,1603489651
san cristobal,VE,7.77,-72.22,93.2,41,40,5.82,1603489663
petropavlovsk-kamchatskiy,RU,53.05,158.65,35.6,80,90,4.47,1603489666
kailua,US,21.4,-157.74,77.0,94,75,3.36,1603489923
bintulu,MY,3.17,113.03,75.2,100,20,4.7,1603490077
menongue,AO,-14.66,17.69,68.79,50,23,4.16,1603490077
kruisfontein,ZA,-34.0,24.73,68.0,82,58,1.99,1603489418
tual,ID,-5.67,132.75,81.91,81,22,10.92,1603490077
viytivka,UA,48.43,29.54,52.86,61,100,5.53,1603490077
vredendal,ZA,-31.67,18.5,59.23,86,5,2.98,1603490078
itarema,BR,-2.92,-39.92,79.56,79,35,15.46,1603489648
kofele,ET,7.07,38.78,47.23,76,53,4.9,1603490078
goderich,CA,43.75,-81.72,72.0,86,87,23.78,1603489880
kudat,MY,6.88,116.85,78.8,78,20,9.17,1603490078
stokmarknes,NO,68.56,14.91,39.0,92,75,1.99,1603489645
gat,IL,31.61,34.76,73.4,78,0,4.7,1603489804
zhangye,CN,38.93,100.45,43.23,53,0,4.92,1603490079
arman,RU,59.7,150.17,37.76,83,100,7.25,1603490079
bodrum,TR,37.04,27.43,69.8,82,0,3.36,1603489966
saint-philippe,RE,-21.36,55.77,71.6,68,75,4.7,1603489395
bathsheba,BB,13.22,-59.52,84.2,70,20,26.4,1603489644
shahpur chakar,PK,26.16,68.65,69.8,68,0,7.07,1603490080
haines junction,CA,60.75,-137.51,24.4,78,95,2.33,1603490080
port macquarie,AU,-31.43,152.92,66.99,99,100,8.63,1603489586
kargil,IN,34.57,76.1,30.33,85,3,3.67,1603490080
ancud,CL,-41.87,-73.82,52.0,93,75,14.99,1603489505
bardiyah,LY,31.76,25.09,69.73,67,70,2.06,1603490081
eydhafushi,MV,5.1,73.07,81.7,79,45,15.12,1603489650
codrington,AU,-38.27,141.97,52.32,84,75,17.13,1603490081
ilulissat,GL,69.22,-51.1,21.2,67,98,6.93,1603489654
hambantota,LK,6.12,81.12,78.57,83,9,14.67,1603489655
saint-augustin,CA,51.23,-58.65,34.75,82,7,0.76,1603489647
nuuk,GL,64.18,-51.72,28.4,74,43,4.7,1603490092
te anau,NZ,-45.42,167.72,55.8,71,100,8.03,1603489537
katsuura,JP,35.13,140.3,62.6,55,75,18.34,1603489456
cockburn town,TC,21.46,-71.14,82.85,77,86,16.67,1603489649
buraydah,SA,26.33,43.98,68.0,30,0,4.7,1603489657
alenquer,BR,-1.94,-54.74,89.6,59,20,8.05,1603490092
turka,UA,49.15,23.03,48.99,97,94,28.01,1603490093
arlit,NE,18.74,7.39,81.99,14,0,13.53,1603490093
anahuac,MX,27.23,-100.15,93.2,44,40,8.05,1603490093
clyde river,CA,70.47,-68.59,21.2,73,90,2.24,1603489830
sorong,ID,-0.88,131.25,79.57,88,99,7.87,1603490093
laguna,US,38.42,-121.42,79.0,15,1,4.7,1603489646
zhuanghe,CN,39.7,122.99,40.57,63,0,5.97,1603490094
lavrentiya,RU,65.58,-171.0,34.03,87,100,3.8,1603490094
chuy,UY,-33.7,-53.46,64.63,92,93,6.8,1603489507
kawalu,ID,-7.38,108.21,71.74,92,95,0.98,1603490094
gewane,ET,10.17,40.65,82.42,32,1,5.12,1603490095
grand gaube,MU,-20.01,57.66,73.4,69,20,9.17,1603489644
waipawa,NZ,-41.41,175.52,64.99,63,0,21.92,1603490095
taoudenni,ML,22.68,-3.98,88.09,12,21,9.73,1603489658
warri,NG,5.52,5.75,76.32,93,63,3.27,1603490095
yumen,CN,40.28,97.2,34.57,71,0,5.82,1603489665
vila velha,BR,-20.33,-40.29,69.8,94,90,4.7,1603489655
fort nelson,CA,58.81,-122.7,28.4,39,40,11.41,1603489502
hasaki,JP,35.73,140.83,57.2,82,75,5.82,1603489409
do gonbadan,IR,30.36,50.8,62.6,36,0,3.94,1603490096
montepuez,MZ,-13.13,39.0,69.8,87,16,7.34,1603490096
inirida,CO,3.87,-67.92,77.61,85,96,2.17,1603489833
asimion,GR,35.05,25.1,64.99,93,40,2.24,1603490097
moron,AR,-34.65,-58.62,72.0,84,69,1.99,1603489658
powassan,CA,46.03,-79.35,42.8,100,90,9.17,1603490097
pilar,BR,-9.6,-35.96,77.0,83,40,10.29,1603489665
otane,NZ,-39.88,176.63,66.0,72,11,2.35,1603489649
coihaique,CL,-45.58,-72.07,57.2,50,90,8.05,1603489669
tessalit,ML,20.2,1.01,85.17,14,0,11.59,1603490098
tigil,RU,57.8,158.67,35.4,84,2,3.69,1603490098
hamilton,US,39.18,-84.53,77.0,65,40,18.34,1603489503
la baule-escoublac,FR,47.29,-2.36,59.0,87,75,16.11,1603490099
ponta do sol,PT,32.67,-17.1,66.2,63,40,4.7,1603489898
dangriga,BZ,16.97,-88.23,91.4,63,20,5.82,1603490051
santa maria,BR,-29.68,-53.81,70.88,84,100,5.86,1603489800
novoselitskoye,RU,44.75,43.44,42.8,75,0,6.71,1603490099
saurimo,AO,-9.66,20.39,65.39,89,100,1.61,1603490100
chama,CH,47.18,8.46,55.4,82,75,6.93,1603490100
sidhi,IN,24.42,81.88,69.42,53,0,3.15,1603490100
riyadh,SA,24.69,46.72,68.0,26,0,3.36,1603490082
beringovskiy,RU,63.05,179.32,33.51,91,100,21.59,1603489488
kudahuvadhoo,MV,2.67,72.89,81.59,80,2,14.07,1603490101
castro,BR,-24.79,-50.01,63.43,92,33,8.34,1603489477
airai,TL,-8.93,125.41,63.79,100,33,0.49,1603489648
quime,BO,-16.98,-67.22,58.89,63,58,7.83,1603490111
saint-francois,FR,46.42,3.91,53.6,81,90,4.7,1603490111
bacungan,PH,9.91,118.7,77.0,100,90,4.7,1603490111
mehamn,NO,71.04,27.85,37.4,86,75,26.4,1603489960
hastings,GB,50.86,0.57,51.01,90,91,12.1,1603489948
kisanga,TZ,-7.44,37.7,77.88,70,20,5.97,1603490112
hudiksvall,SE,61.73,17.1,32.74,91,0,6.91,1603490083
kahului,US,20.89,-156.47,89.6,46,40,10.29,1603489981
concarneau,FR,47.88,-3.92,55.4,93,90,3.36,1603490112
monduli,TZ,-3.3,36.45,64.2,73,88,7.25,1603490113
caravelas,BR,-17.71,-39.25,73.04,90,97,6.22,1603489667
owerri,NG,5.48,7.03,77.0,94,40,4.7,1603490113
la romana,DO,18.43,-68.97,86.0,74,40,13.87,1603490113
leningradskiy,RU,69.38,178.42,23.16,90,0,4.23,1603489546
whitehorse,CA,60.72,-135.05,15.8,66,20,3.36,1603489526
atar,MR,20.52,-13.05,88.27,24,96,9.93,1603490114
alugan,PH,12.22,125.48,77.11,89,94,5.95,1603489965
saint-louis,SN,16.33,-15.0,87.8,43,0,2.24,1603490114
jalu,LY,29.03,21.55,66.51,72,15,13.89,1603489656
port hedland,AU,-20.32,118.57,69.8,94,0,8.05,1603490114
nishihara,JP,26.18,127.76,71.6,55,90,8.05,1603490114
alto araguaia,BR,-17.31,-53.22,75.36,76,90,6.53,1603490115
madang,PG,-5.22,145.8,78.94,83,53,4.72,1603490115
verkhnyaya inta,RU,65.98,60.31,14.04,92,1,4.27,1603490115
khani,GE,41.96,42.96,53.6,71,0,5.82,1603490115
camacha,PT,33.08,-16.33,66.2,63,40,5.82,1603490115
oranjestad,AW,12.52,-70.03,86.0,74,40,20.8,1603489946
linxia,CN,35.6,103.21,46.02,77,10,3.69,1603490116
yar-sale,RU,66.83,70.83,20.75,95,92,9.48,1603490116
quelimane,MZ,-17.88,36.89,73.4,83,0,2.62,1603490116
kavieng,PG,-2.57,150.8,83.86,64,28,3.78,1603489643
bonavista,CA,48.65,-53.11,37.99,86,62,1.01,1603490116
liverpool,GB,53.41,-2.98,48.2,81,0,8.05,1603489543
cedar city,US,37.68,-113.06,55.4,22,1,3.36,1603490117
astoria,US,46.19,-123.83,53.01,87,90,18.34,1603490109
kabanjahe,ID,3.1,98.49,77.0,100,40,2.24,1603490117
pudozh,RU,61.81,36.53,42.76,97,100,3.71,1603490117
marienburg,PL,54.04,19.03,53.01,100,97,1.61,1603490117
san patricio,US,28.02,-97.52,91.99,59,20,8.05,1603489664
wagar,SD,16.15,36.2,86.38,38,27,8.12,1603490118
fortuna,US,40.6,-124.16,64.0,51,1,13.87,1603489654
lebu,CL,-37.62,-73.65,54.59,78,100,1.36,1603489656
gravdal,NO,68.12,13.5,37.4,86,40,4.7,1603490118
anadyr,RU,64.75,177.48,23.0,92,75,4.47,1603489662
beyneu,KZ,45.32,55.2,39.65,68,17,11.68,1603489902
waingapu,ID,-9.66,120.26,79.48,75,76,2.89,1603489659
feltre,IT,46.02,11.91,52.0,98,100,0.69,1603490119
zuwarah,LY,32.93,12.08,75.31,62,0,11.9,1603490129
rock springs,US,41.59,-109.2,33.8,40,1,3.36,1603490129
fare,PF,-16.7,-151.02,79.47,72,1,9.1,1603489979
khilok,RU,51.37,110.47,28.65,93,0,0.87,1603490129
kavaratti,IN,10.57,72.64,80.15,78,92,14.29,1603489668
grindavik,IS,63.84,-22.43,41.0,80,40,16.11,1603489644
isangel,VU,-19.55,169.27,78.69,72,50,10.47,1603489536
katangli,RU,51.71,143.23,48.6,92,100,38.59,1603490130
buta,CD,2.79,24.73,70.0,93,96,1.1,1603490130
dakar,SN,14.69,-17.44,82.4,88,0,6.93,1603490131
vanavara,RU,60.34,102.28,27.9,97,90,6.73,1603490125
ouallam,NE,14.32,2.09,88.32,12,0,11.5,1603490131
hithadhoo,MV,-0.6,73.08,82.27,79,79,12.77,1603489835
kiama,AU,-34.68,150.87,69.01,93,98,3.0,1603489904
berlevag,NO,70.86,29.09,39.2,86,75,31.09,1603489668
aklavik,CA,68.22,-135.01,30.2,80,20,4.7,1603489656
chifeng,CN,42.27,118.96,36.57,71,0,7.23,1603490132
batagay-alyta,RU,67.8,130.41,9.91,90,100,3.36,1603490132
bakchar,RU,57.02,82.07,28.38,97,100,6.2,1603490132
imeni poliny osipenko,RU,52.42,136.49,32.14,96,100,32.41,1603490132
ribeira grande,PT,38.52,-28.7,66.76,77,56,20.36,1603489492
balsas,BR,-7.53,-46.04,83.73,53,70,3.62,1603490133
inzhavino,RU,52.32,42.49,53.62,86,100,9.08,1603490133
georgetown,MY,5.41,100.34,78.8,94,20,3.51,1603489806
plettenberg bay,ZA,-34.05,23.37,64.44,87,53,6.91,1603490126
sioux lookout,CA,50.1,-91.92,32.0,92,90,8.05,1603489993
kolyvan,RU,55.31,82.74,30.2,86,100,6.71,1603490134
luang prabang,LA,19.89,102.13,61.56,68,99,1.1,1603490134
iqaluit,CA,63.75,-68.51,30.2,80,90,4.7,1603489657
luderitz,NA,-26.65,15.16,59.68,79,0,7.2,1603489646
volda,NO,62.15,6.07,41.0,86,75,8.05,1603490135
lypova dolyna,UA,50.56,33.8,56.43,63,100,6.6,1603490135
maumere,ID,-8.62,122.21,79.93,80,37,3.78,1603490135
lydenburg,ZA,-25.1,30.46,66.99,83,0,1.45,1603490135
inta,RU,66.03,60.17,14.58,93,1,4.88,1603490136
olafsvik,IS,64.89,-23.71,44.46,80,91,22.68,1603489495
fauske,NO,67.26,15.39,35.01,94,96,5.55,1603490136
araouane,ML,18.9,-3.53,89.17,12,24,2.73,1603490136
mount isa,AU,-20.73,139.5,69.8,88,0,10.16,1603489674
mastic beach,US,40.77,-72.85,63.0,82,90,3.36,1603490136
markala,ML,13.7,-6.07,84.42,20,24,6.53,1603490137
alofi,NU,-19.06,-169.92,80.6,78,75,17.22,1603489831
sept-iles,CA,50.2,-66.38,37.0,69,90,10.29,1603489644
nantucket,US,41.28,-70.1,59.0,87,75,12.75,1603490133
yomou,GN,7.56,-9.27,70.54,94,44,1.03,1603490138
gravelbourg,CA,49.88,-106.55,18.46,90,0,2.89,1603490138
zyryanka,RU,65.75,150.85,15.55,94,0,6.78,1603490148
kidal,ML,18.44,1.41,85.53,14,0,10.0,1603490145
hovd,MN,48.01,91.64,36.9,68,100,3.62,1603490149
north bend,US,43.41,-124.22,73.0,44,90,4.7,1603489670
amuntai,ID,-2.42,115.25,73.94,92,95,1.3,1603490149
kholodnyy,RU,62.72,147.95,19.44,93,67,1.23,1603490150
elko,US,41.0,-115.5,55.99,16,25,8.99,1603490150
sonoita,MX,31.85,-112.83,90.0,23,7,5.01,1603490150
west wendover,US,40.74,-114.07,46.4,22,1,3.36,1603490150
santa cruz cabralia,BR,-16.28,-39.02,71.6,88,90,4.7,1603490150
mareeba,AU,-17.0,145.43,77.0,78,76,2.8,1603490150
fuxin,CN,42.02,121.66,37.29,69,0,3.78,1603490151
mwinilunga,ZM,-11.74,24.43,66.99,52,44,2.01,1603490151
skibotn,NO,69.39,20.27,37.4,86,75,31.09,1603490151
yulara,AU,-25.24,130.99,59.0,72,5,10.29,1603489651
talnakh,RU,69.49,88.4,-4.0,83,40,8.95,1603489375
vaitape,PF,-16.52,-151.75,79.72,73,12,8.79,1603490152
marsa matruh,EG,31.35,27.25,66.2,72,0,1.59,1603490152
halifax,CA,44.65,-63.57,52.0,84,34,3.0,1603489510
nizhnyaya tavda,RU,57.67,66.17,23.79,91,0,5.12,1603490152
funadhoo,MV,6.15,73.27,81.59,79,60,14.36,1603490152
antofagasta,CL,-23.65,-70.4,60.8,77,90,17.22,1603489977
rocha,UY,-34.48,-54.33,62.74,95,75,5.82,1603489973
noumea,NC,-22.28,166.46,82.4,54,0,4.7,1603489510
fomboni,KM,-12.28,43.74,79.75,76,11,9.13,1603490153
sobolevo,RU,54.43,31.9,48.04,91,14,8.63,1603490128
svetlogorsk,BY,52.63,29.73,48.99,95,98,6.08,1603489953
casper,US,42.87,-106.31,28.99,74,1,5.82,1603490153
northam,GB,51.03,-4.22,46.99,87,74,7.0,1603489439
shimoda,JP,34.67,138.95,64.6,73,39,5.32,1603489663
cooma,AU,-36.23,149.13,59.0,87,75,9.17,1603490154
poum,NC,-20.23,164.02,77.92,77,0,15.86,1603489661
altamira,BR,-3.2,-52.21,83.52,61,61,2.57,1603490154
touros,BR,-5.2,-35.46,77.0,94,40,5.82,1603489666
bhachau,IN,23.28,70.35,79.25,43,0,8.72,1603490155
the valley,AI,18.22,-63.06,86.0,83,20,13.87,1603489674
baneh,IR,36.0,45.89,49.26,49,0,6.55,1603490155
belmonte,BR,-15.86,-38.88,73.4,83,90,11.41,1603489664
zheshart,RU,62.07,49.57,28.18,98,100,10.76,1603490156
itacarambi,BR,-15.1,-44.09,76.1,72,75,7.2,1603490156
elbrus,RU,43.26,42.64,46.0,55,0,4.97,1603490156
san ignacio,BZ,17.16,-89.07,90.0,66,40,4.7,1603490131
luanda,AO,-8.84,13.23,77.0,78,40,8.05,1603490147
iseyin,NG,7.97,3.6,73.24,92,54,3.53,1603490156
bowen,AU,-20.02,148.23,73.4,88,100,3.36,1603490157
prince rupert,CA,54.32,-130.32,44.6,45,1,5.82,1603490132
zlitan,LY,32.47,14.57,67.98,60,0,8.63,1603490167
sambava,MG,-14.27,50.17,71.46,83,23,9.69,1603489645
kalabo,ZM,-14.97,22.68,73.74,26,4,3.67,1603490151
daye,CN,30.08,114.95,53.82,61,75,5.1,1603490168
sijunjung,ID,-0.69,100.95,73.9,89,100,0.43,1603490168
jasper,US,37.2,-94.35,45.0,70,90,13.87,1603490168
chapais,CA,49.78,-74.85,33.8,100,90,8.05,1603490138
walvis bay,NA,-22.96,14.51,60.01,82,99,3.36,1603490169
zhezkazgan,KZ,47.8,67.71,27.77,87,0,7.09,1603490169
kamaishi,JP,39.27,141.88,50.74,65,3,7.49,1603490169
coquimbo,CL,-29.95,-71.34,57.2,76,75,10.29,1603489668
ransang,PH,8.96,117.58,80.17,81,100,6.76,1603490169
rawson,AR,-43.3,-65.1,75.94,35,85,25.19,1603489643
meulaboh,ID,4.14,96.13,77.76,86,100,3.85,1603490142
santa cruz,BO,-17.8,-63.17,95.0,41,20,14.99,1603489921
conceicao do araguaia,BR,-8.26,-49.26,84.02,57,100,6.33,1603490170
westport,US,41.14,-73.36,64.99,88,90,6.93,1603489367
auki,SB,-8.77,160.7,84.52,65,37,3.18,1603489652
champerico,GT,14.3,-91.92,87.8,74,75,6.93,1603489656
hervey bay,AU,-25.3,152.85,79.0,88,75,8.05,1603489982
belogorsk,RU,50.92,128.46,27.16,89,0,16.55,1603490171
necochea,AR,-38.55,-58.74,59.0,83,31,5.01,1603490148
margate,GB,51.38,1.39,54.0,87,58,1.99,1603490148
mumford,GH,5.26,-0.76,77.94,90,63,8.48,1603490171
derzhavinsk,KZ,51.1,66.32,27.77,86,7,7.16,1603490172
guerrero negro,MX,27.98,-114.06,73.27,59,52,15.1,1603489644
mattru,SL,7.62,-11.83,74.91,95,100,2.06,1603490172
asau,RO,46.43,26.4,51.01,78,56,6.33,1603489663
nabire,ID,-3.37,135.48,75.36,92,100,4.54,1603490129
maryborough,AU,-25.53,152.7,76.41,67,100,7.29,1603490173
carauari,BR,-4.88,-66.9,78.75,92,98,3.15,1603490173
mirnyy,RU,62.54,113.96,26.6,58,0,13.42,1603490173
san fernando,PH,15.03,120.69,75.2,100,75,2.24,1603490173
veraval,IN,20.9,70.37,81.3,53,0,5.7,1603490173
knin,HR,44.04,16.2,59.0,77,0,3.36,1603490174
yanaul,RU,56.27,54.93,35.46,96,100,15.41,1603490174
puerto rondon,CO,6.28,-71.1,76.41,92,100,1.61,1603490174
sokolovo,RU,52.53,84.79,32.41,97,100,4.99,1603490174
sistranda,NO,63.73,8.83,35.6,69,0,10.29,1603490175
vardo,NO,70.37,31.11,39.2,86,75,29.97,1603489652
otoka,BA,44.96,16.18,55.42,81,100,3.11,1603490175
krutinka,RU,56.01,71.51,25.16,90,100,12.59,1603490175
oranjemund,NA,-28.55,16.43,59.4,83,0,2.37,1603490126
astana,KZ,51.18,71.45,17.6,85,0,11.18,1603490176
altay,CN,47.87,88.12,42.03,68,100,3.98,1603490176
sabya,SA,17.15,42.63,84.2,74,0,2.01,1603490186
ariquemes,BR,-9.91,-63.04,81.43,68,86,1.68,1603490186
shingu,JP,33.73,135.98,53.42,80,0,6.04,1603489476
srednekolymsk,RU,67.45,153.68,15.46,91,0,3.33,1603489655
ust-maya,RU,60.42,134.53,7.83,94,0,0.34,1603490152
cayenne,GF,4.93,-52.33,84.2,74,0,5.82,1603490146
sibu,MY,2.3,111.82,77.0,94,40,2.24,1603490187
boa vista,BR,2.82,-60.67,91.4,43,40,4.7,1603490187
rawah,IQ,34.48,41.91,72.01,21,99,8.3,1603490187
sovetskiy,RU,61.36,63.58,21.85,94,0,3.36,1603490188
ternate,ID,0.8,127.4,81.16,81,73,1.9,1603490131
portland,US,45.52,-122.68,52.0,66,90,9.17,1603489764
pontianak,ID,-0.03,109.33,76.41,92,100,3.06,1603490188
aykhal,RU,66.0,111.5,17.6,67,90,11.18,1603490151
pochutla,MX,15.74,-96.47,88.0,66,40,6.04,1603490188
pamekasan,ID,-7.16,113.47,80.46,78,1,1.83,1603490189
bronnoysund,NO,65.46,12.2,39.2,86,75,3.36,1603490189
pokrovskoye,RU,47.42,38.9,57.96,94,84,11.01,1603490189
inhambane,MZ,-23.86,35.38,70.07,84,0,5.73,1603489901
bengkulu,ID,-3.8,102.27,75.33,92,100,6.26,1603489528
kloulklubed,PW,7.04,134.26,77.0,94,75,12.64,1603490143
kanina,CD,-10.73,25.47,69.46,56,75,3.29,1603490190
ribeira brava,PT,32.65,-17.07,66.2,63,40,4.7,1603490190
pindi gheb,PK,33.24,72.27,59.0,72,0,5.82,1603490190
plouzane,FR,48.38,-4.62,53.6,93,75,11.41,1603490191
lewiston,US,44.1,-70.21,55.4,76,90,6.93,1603490144
ormara,PK,25.21,64.64,79.45,29,0,26.8,1603490191
gamba,GA,-2.65,10.0,76.91,87,100,7.49,1603489660
nizhniy kuranakh,RU,58.84,125.49,19.78,94,59,1.83,1603490191
kaliua,TZ,-5.06,31.79,75.18,51,40,3.83,1603490192
omboue,GA,-1.57,9.26,76.82,89,100,7.65,1603490192
tiarei,PF,-17.53,-149.33,84.2,66,75,13.87,1603490192
verkhnyaya balkariya,RU,43.13,43.46,51.8,44,0,4.47,1603490192
port lincoln,AU,-34.73,135.87,54.91,72,87,21.25,1603489444
khanpur,PK,28.65,70.66,66.74,22,0,3.49,1603490193
namibe,AO,-15.2,12.15,70.66,78,90,6.71,1603489471
yuanping,CN,38.72,112.76,39.74,60,0,1.14,1603490193
birao,CF,10.28,22.79,74.98,75,99,3.36,1603490193
kalyazin,RU,57.24,37.84,47.46,88,74,11.97,1603490193
atherton,GB,53.52,-2.49,46.0,78,76,3.0,1603490194
ojinaga,MX,29.57,-104.42,91.4,18,1,11.41,1603490194
chumikan,RU,54.72,135.31,30.56,86,100,11.39,1603490194
abha,SA,18.22,42.51,62.6,23,0,9.24,1603490194
evensk,RU,61.95,159.23,30.88,93,35,4.18,1603490195
ha giang,VN,22.83,104.98,61.72,62,100,2.66,1603490195
balotra,IN,25.83,72.23,79.0,24,0,5.55,1603490195
sudzha,RU,51.2,35.27,56.3,71,100,9.42,1603490205
atambua,ID,-9.11,124.89,76.84,80,12,2.17,1603490140
santa marta,CO,11.24,-74.2,87.01,75,98,1.01,1603489975
makakilo city,US,21.35,-158.09,80.6,78,75,10.29,1603489557
shimanovsk,RU,52.0,127.7,25.07,86,0,12.8,1603490206
shakawe,BW,-18.37,21.85,73.44,23,0,6.49,1603490206
sidi ali,DZ,36.1,0.42,63.27,80,100,5.1,1603490206
turtas,RU,58.94,69.13,19.89,97,2,4.16,1603490127
new plymouth,NZ,-39.07,174.08,55.99,95,91,7.0,1603490207
palimbang,PH,6.21,124.19,78.48,80,100,6.82,1603490207
osorno,CL,-40.57,-73.15,57.2,71,90,5.82,1603490207
salinopolis,BR,-0.61,-47.36,79.66,80,36,11.63,1603490207
jalingo,NG,8.88,11.37,77.67,79,100,3.15,1603490208
hilton head island,US,32.22,-80.75,78.8,69,20,4.7,1603489934
santa fe,AR,-31.63,-60.7,75.0,89,87,3.0,1603490148
ust-tsilma,RU,65.44,52.15,24.55,91,100,10.58,1603489665
burla,IN,21.5,83.87,71.98,74,19,2.57,1603490208
stromness,GB,58.97,-3.3,41.0,86,0,8.05,1603490209
bac lieu,VN,9.29,105.72,77.2,86,100,2.04,1603490209
ishigaki,JP,24.34,124.16,71.6,73,75,16.11,1603489662
belyy yar,RU,53.6,91.39,32.0,78,0,2.24,1603490209
shelburne,CA,44.08,-80.2,75.2,60,75,25.28,1603490127
uvira,CD,-3.41,29.15,74.52,60,6,3.74,1603490210
lashio,MM,22.93,97.75,65.7,90,100,1.5,1603490210
jadu,LY,31.95,12.03,67.53,29,0,11.56,1603489978
vilyuysk,RU,63.76,121.62,24.08,96,85,6.85,1603490210
yablonovo,RU,50.85,37.36,55.4,71,0,6.71,1603490210
caluquembe,AO,-13.78,14.68,66.99,63,93,1.7,1603490210
gweru,ZW,-19.45,29.82,62.53,68,0,4.9,1603490211
karaton,ID,-6.34,106.1,77.0,83,20,4.7,1603490211
sao borja,BR,-28.66,-56.0,71.56,87,100,8.79,1603490211
adre,TD,13.47,22.2,77.31,18,3,10.25,1603490211
marawi,PH,8.0,124.29,73.99,94,100,3.0,1603489496
kharp,RU,66.8,65.81,20.64,94,100,6.38,1603490212
gallup,US,35.53,-108.74,73.4,14,1,19.46,1603490212
barranca,PE,-10.75,-77.77,64.44,76,88,7.81,1603490212
bela vista,BR,-22.11,-56.52,78.4,67,35,4.16,1603490212
olaine,LV,56.79,23.94,50.0,81,40,5.82,1603490212
magadi,IN,12.97,77.23,64.4,100,40,6.93,1603490213
prachuap khiri khan,TH,12.22,99.75,69.93,85,100,2.46,1603490213
weinfelden,CH,47.57,9.1,55.0,96,100,4.07,1603490213
caceres,ES,39.52,-6.37,52.0,88,0,3.13,1603490213
mukhtolovo,RU,55.46,43.2,49.95,92,80,9.89,1603490213
grand forks,US,47.94,-97.43,33.8,94,75,16.11,1603489925
alvorada,BR,-12.48,-49.12,80.71,62,69,9.37,1603490128
qaqortoq,GL,60.72,-46.03,28.4,68,95,1.12,1603489832
jackson,US,42.42,-122.83,66.0,18,1,2.42,1603490102
mahajanga,MG,-15.72,46.32,82.4,45,20,10.29,1603490224
srinagar,IN,34.08,74.82,47.19,50,0,0.87,1603490224
balaka,MW,-14.98,34.96,73.87,47,0,0.65,1603490225
pisco,PE,-13.7,-76.22,66.2,72,0,24.16,1603489469
almeirim,BR,-1.52,-52.58,85.24,58,19,2.53,1603490225
rio grande,BR,-32.03,-52.1,71.01,86,100,9.73,1603489641
etchojoa,MX,26.92,-109.63,96.01,41,0,10.0,1603490225
kaiwaka,NZ,-36.17,174.45,72.0,72,21,7.18,1603490225
nelson bay,AU,-32.72,152.15,68.0,94,75,8.05,1603490154
thaba-tseka,LS,-29.52,28.61,57.9,60,90,3.69,1603490226
nirmal,IN,19.1,78.35,71.51,69,46,1.74,1603490226
palauig,PH,15.44,119.9,79.84,75,90,5.06,1603489650
ponta delgada,PT,37.73,-25.67,66.2,72,75,13.87,1603489627
marshfield,US,44.67,-90.17,37.4,74,90,17.22,1603489976
kralendijk,BQ,12.15,-68.27,87.8,66,40,19.46,1603490227
yerbogachen,RU,61.28,108.01,25.66,98,92,4.65,1603489547
sebring,US,27.5,-81.44,80.6,74,90,12.75,1603490224
atasu,KZ,48.68,71.64,26.13,89,0,7.81,1603490145
tazovskiy,RU,67.47,78.7,20.48,98,100,8.34,1603489646
biak,ID,-0.91,122.88,77.4,80,6,1.57,1603489833
syrskoye,RU,52.57,39.5,55.4,76,0,11.18,1603490228
nokaneng,BW,-19.67,22.27,75.51,25,2,7.61,1603490228
whitianga,NZ,-36.83,175.7,65.35,68,4,4.45,1603490228
athabasca,CA,54.72,-113.29,21.63,80,81,3.58,1603489955
roald,NO,62.58,6.13,41.0,60,100,11.41,1603490138
mustasaari,FI,63.11,21.68,37.99,81,0,5.82,1603490229
luchegorsk,RU,46.48,134.26,33.1,89,100,15.5,1603490229
boralday,KZ,43.36,76.86,41.0,86,90,6.71,1603490229
bukene,TZ,-4.23,32.88,77.59,45,95,3.87,1603490229
liwale,TZ,-9.77,37.93,72.91,79,57,4.74,1603490229
zhicheng,CN,30.3,111.5,60.01,67,82,2.48,1603490230
alzamay,RU,55.56,98.66,36.05,92,95,3.94,1603490230
ottawa,CA,45.41,-75.7,75.2,60,40,17.22,1603490050
saint anthony,US,45.02,-93.22,36.0,69,90,13.87,1603489925
burnie,AU,-41.07,145.92,54.16,61,100,12.82,1603490136
hualmay,PE,-11.1,-77.61,65.19,74,71,6.71,1603489666
turukhansk,RU,65.82,87.98,9.18,96,96,8.66,1603490230
roatan,HN,16.32,-86.54,84.2,83,75,9.17,1603490231
sanjwal,PK,33.76,72.43,63.0,72,0,5.82,1603490231
soria,ES,41.67,-2.67,45.0,90,0,5.79,1603490231
jacmel,HT,18.23,-72.53,91.4,55,40,18.34,1603490231
severobaykalsk,RU,55.65,109.32,36.63,76,34,2.84,1603490231
bahia honda,CU,22.9,-83.16,82.11,81,87,9.98,1603489640
werda,BW,-25.27,23.28,81.59,22,30,5.88,1603490232
wajima,JP,37.4,136.9,54.55,65,94,10.22,1603490232
santa isabel,BR,-23.32,-46.22,71.6,68,0,6.93,1603490242
acajutla,SV,13.59,-89.83,82.4,74,20,2.24,1603489421
townsville,AU,-19.25,146.8,78.8,78,75,9.17,1603490242
lakes entrance,AU,-37.88,147.98,62.01,97,100,6.24,1603490150
bolshevik,BY,54.01,27.57,46.4,100,35,8.95,1603490243
adrar,MR,20.5,-10.07,88.97,14,52,7.02,1603489445
middelburg,ZA,-25.78,29.46,68.61,55,2,5.66,1603490243
taltal,CL,-25.4,-70.48,62.35,64,22,3.94,1603489365
tazmalt,DZ,36.39,4.4,69.8,73,40,3.36,1603490243
nobeoka,JP,32.58,131.67,51.55,65,0,7.14,1603490244
nichinan,JP,31.6,131.37,53.6,66,20,14.99,1603490244
sinegorye,RU,62.08,150.48,30.33,92,95,4.5,1603490244
awjilah,LY,29.11,21.29,65.93,74,3,13.09,1603490149
lac du bonnet,CA,50.25,-96.06,30.0,98,85,5.99,1603490244
sayat,TM,38.78,63.88,44.6,52,0,2.24,1603490244
filadelfia,US,39.95,-75.16,71.6,73,75,8.05,1603490091
khangarh,PK,29.92,71.16,71.6,64,0,3.85,1603490245
belaya gora,RU,68.53,146.42,5.76,87,21,2.75,1603490126
manuk mangkaw,PH,4.8,119.85,83.21,75,98,8.16,1603490245
narsaq,GL,60.92,-46.05,28.4,68,98,1.12,1603489414
conde,BR,-7.26,-34.91,78.8,83,20,11.41,1603490136
la ronge,CA,55.1,-105.28,24.8,68,90,11.41,1603489668
dudinka,RU,69.41,86.18,-4.0,83,40,8.95,1603490246
zalari,RU,53.56,102.51,35.29,91,80,2.1,1603490246
mana,GF,5.66,-53.78,82.15,78,46,11.92,1603490246
shar,KZ,49.59,81.05,33.8,88,97,6.2,1603490246
kutum,SD,14.2,24.67,74.12,19,28,10.65,1603490247
dodge city,US,37.75,-100.02,46.4,42,20,21.92,1603490247
praia,CV,14.92,-23.51,78.8,78,40,16.11,1603489833
novaya igirma,RU,57.13,103.91,32.97,95,90,0.76,1603490247
zheleznodorozhnyy,RU,55.75,38.0,52.0,87,75,8.95,1603490247
takoradi,GH,4.88,-1.76,77.38,90,33,7.45,1603490248
chelmno,PL,53.35,18.43,55.99,72,100,1.01,1603490248
general roca,AR,-39.03,-67.58,82.4,37,0,5.82,1603490127
sosnovo-ozerskoye,RU,52.52,111.54,26.06,96,32,2.55,1603489659
ati,TD,13.22,18.34,87.06,13,17,11.03,1603490248
krumovgrad,BG,41.47,25.65,59.0,78,0,3.2,1603490248
ossora,RU,59.24,163.07,39.78,70,0,2.82,1603490249
ust-omchug,RU,61.15,149.63,29.07,96,100,2.26,1603490249
ahipara,NZ,-35.17,173.17,68.07,69,55,6.06,1603490150
perth,AU,-31.93,115.83,55.99,62,0,17.22,1603490163
montrose,US,38.42,-108.27,64.99,24,1,5.82,1603490249
freeport,US,40.66,-73.58,64.99,82,90,5.82,1603490250
santiago del estero,AR,-27.8,-64.26,82.02,59,29,2.93,1603490250
barentin,FR,49.55,0.96,53.01,100,90,9.17,1603490250
wanning,CN,18.8,110.4,72.25,61,100,15.48,1603490250
honiara,SB,-9.43,159.95,82.4,78,20,3.36,1603489969
nambucca heads,AU,-30.65,153.0,69.8,88,75,8.05,1603490251
pegnitz,DE,49.76,11.54,55.4,93,90,8.68,1603490261
corrente,BR,-3.74,-43.34,82.92,65,87,8.61,1603490261
vestmanna,FO,62.16,-7.17,42.8,93,26,4.7,1603489666
turner,US,44.26,-70.26,55.99,71,62,4.0,1603490261
port augusta,AU,-32.5,137.77,57.2,67,90,18.34,1603490261
keti bandar,PK,24.14,67.45,80.31,61,0,11.16,1603490262
barillas,GT,15.8,-91.32,68.72,89,86,1.61,1603490262
dabwali,IN,29.95,74.73,67.3,25,0,3.22,1603490262
aksarayskiy,RU,46.79,48.01,50.0,93,86,6.71,1603490262
talcahuano,CL,-36.72,-73.12,59.0,72,75,14.99,1603490026
bandarbeyla,SO,9.49,50.81,76.6,78,100,2.13,1603490131
misratah,LY,32.38,15.09,70.18,58,0,8.19,1603490263
krabi,TH,8.07,98.91,73.4,94,90,2.24,1603490263
parabel,RU,58.7,81.48,28.87,99,100,0.81,1603490263
jiangyou,CN,31.77,104.72,62.38,70,97,2.55,1603490263
barcelos,PT,41.54,-8.62,55.4,93,20,6.93,1603490263
asfi,MA,32.3,-9.24,66.15,71,0,14.63,1603489857
tecoanapa,MX,16.52,-98.75,85.33,70,100,10.11,1603489673
dalby,AU,-27.18,151.27,70.0,77,100,5.99,1603490264
havre-saint-pierre,CA,50.23,-63.6,35.6,74,90,5.82,1603490264
mesyagutovo,RU,55.53,58.25,27.52,92,86,8.23,1603490264
jiuquan,CN,39.74,98.52,36.52,67,0,1.39,1603489666
uige,AO,-7.61,15.06,68.72,96,100,1.52,1603490265
orbetello,IT,42.44,11.22,66.2,88,75,10.29,1603490265
humaita,BR,-7.51,-63.02,76.3,94,100,3.56,1603490265
ostersund,SE,63.18,14.64,32.0,95,20,8.05,1603490265
high level,CA,58.52,-117.14,28.4,63,40,5.82,1603490266
kibala,TD,9.11,18.35,80.6,83,20,3.27,1603490266
helsinki,FI,60.17,24.94,35.01,86,20,6.93,1603490221
eskisehir,TR,39.78,30.52,48.2,93,0,3.36,1603490266
timra,SE,62.49,17.33,34.0,100,0,4.7,1603490266
flinders,AU,-34.58,150.86,69.01,92,99,1.01,1603490267
lexington,US,37.99,-84.48,70.0,82,1,6.93,1603489968
mossendjo,CG,-2.95,12.73,71.96,97,100,4.99,1603490267
aulla,IT,44.21,9.97,66.99,87,100,4.0,1603490267
